City_ID,City,Lat,Lng,Max Temp,Humidity,Cloudiness,Wind Speed,Country,Date
0,colonia,50.9333,6.95,15.53,73,0,4.63,DE,1685484181
1,opuwo,-18.0607,13.84,14.29,24,9,1.84,NA,1685484408
2,port elizabeth,-33.918,25.5701,15.17,89,100,1.79,ZA,1685484191
3,grytviken,-54.2811,-36.5092,-4.41,76,8,2.21,GS,1685484152
4,naze,28.3667,129.4833,23.51,92,94,2.6,JP,1685484377
5,puerto ayora,-0.7393,-90.3518,29.98,92,90,1.79,EC,1685484159
6,talnakh,69.4865,88.3972,5.67,72,94,5.22,RU,1685484181
7,fort st. john,56.2499,-120.8529,15.94,41,40,3.6,CA,1685484110
8,utrik,11.2278,169.8474,27.5,80,100,7.87,MH,1685484207
9,wailua homesteads,22.0669,-159.378,26.24,79,21,4.47,US,1685484169
10,longyearbyen,78.2186,15.6401,0.91,86,75,7.2,SJ,1685484151
11,muroto-misakicho,33.2833,134.15,19.07,82,100,7.51,JP,1685484410
12,magdagachi,53.45,125.8,9.02,90,91,1.63,RU,1685484411
13,tambacounda,13.7539,-13.7586,37.33,28,89,2.61,SN,1685484411
14,port-aux-francais,-49.35,70.2167,4.75,87,98,15.16,TF,1685484166
15,buala,-8.145,159.5921,27.6,81,100,6.35,SB,1685484257
16,adamstown,-25.066,-130.1015,21.66,66,100,6.01,PN,1685484161
17,sawakin,19.1059,37.3321,29.7,80,85,5.31,SD,1685484412
18,isafjordur,66.0755,-23.124,7.63,80,63,5.2,IS,1685484180
19,lebu,-37.6167,-73.65,11.54,93,100,7.16,CL,1685484182
20,kodiak,57.79,-152.4072,6.57,80,100,3.42,US,1685484184
21,ushuaia,-54.8,-68.3,10.81,71,20,5.66,AR,1685484126
22,punta arenas,-53.15,-70.9167,6.06,93,20,1.03,CL,1685484076
23,horta,38.5333,-28.6333,17.79,83,13,5.81,PT,1685484413
24,pemangkat,1.1667,108.9667,26.31,87,100,3.33,ID,1685484413
25,chonchi,-42.6128,-73.8092,11.56,96,100,2.97,CL,1685484204
26,maun,-19.9833,23.4167,19.51,37,24,1.95,BW,1685484414
27,beolgyo,34.8449,127.3429,18.51,77,99,2.83,KR,1685484414
28,ust'-kulom,61.6864,53.6902,11.92,74,100,1.59,RU,1685484415
29,sitka,57.0531,-135.33,5.69,94,100,1.91,US,1685484156
30,chui,-33.6971,-53.4616,13.93,85,100,2.55,UY,1685484415
31,puerto natales,-51.7236,-72.4875,6.27,97,90,1.76,CL,1685484164
32,bengkulu,-3.8004,102.2655,24.51,90,100,1.47,ID,1685484416
33,bilibino,68.0546,166.4372,9.03,60,100,2.17,RU,1685484163
34,broome,42.2506,-75.833,28.12,36,0,3.09,US,1685484246
35,salekhard,66.53,66.6019,8.31,81,21,1.55,RU,1685484416
36,kuta,-8.7233,115.1723,25.0,94,75,4.63,ID,1685484417
37,yellowknife,62.456,-114.3525,14.29,44,20,6.17,CA,1685484093
38,edinburgh of the seven seas,-37.0676,-12.3116,13.84,74,96,12.6,SH,1685484163
39,narasannapeta,18.4167,84.05,27.34,74,84,2.98,IN,1685484417
40,port saint john's,-31.6229,29.5448,20.43,80,100,1.94,ZA,1685484185
41,west island,-12.1568,96.8225,26.99,83,75,6.69,CC,1685484161
42,garissa,-0.4536,39.6401,24.63,72,13,5.4,KE,1685484418
43,emerald,-23.5333,148.1667,12.17,50,0,2.06,AU,1685484268
44,kapuskasing,49.4169,-82.4331,32.05,19,20,5.66,CA,1685484062
45,al abyar,32.19,20.5965,23.81,41,90,14.6,LY,1685484419
46,vorkuta,67.5,64.0,6.26,95,3,1.83,RU,1685484420
47,papatowai,-46.5619,169.4708,9.65,68,98,5.12,NZ,1685484167
48,margaret river,-33.95,115.0667,15.02,91,66,2.49,AU,1685484186
49,gadzhiyevo,69.2551,33.3362,7.67,63,100,5.36,RU,1685484233
50,constantia,44.1833,28.65,14.38,72,84,4.35,RO,1685484240
51,bethel,41.3712,-73.414,23.21,45,5,0.45,US,1685484162
52,ayame,5.6083,-3.1563,24.19,96,69,1.39,CI,1685484421
53,port mathurin,-19.6833,63.4167,24.49,69,7,6.23,MU,1685484175
54,gaozhou,21.9392,110.8461,25.79,87,59,0.82,CN,1685484422
55,nuku'alofa,-21.1333,-175.2,26.19,83,40,6.17,TO,1685484207
56,iqaluit,63.7506,-68.5145,2.85,86,100,0.0,CA,1685484018
57,puerto santa,-8.9906,-78.6456,22.99,77,15,4.53,PE,1685484422
58,priargunsk,50.3691,119.1012,12.42,31,87,3.82,RU,1685484423
59,hermanus,-34.4187,19.2345,14.89,92,97,6.7,ZA,1685484168
60,qaqortoq,60.7167,-46.0333,4.42,89,100,1.79,GL,1685484236
61,nova xavantina,-14.6667,-52.35,26.51,46,96,0.58,BR,1685484214
62,waitangi,-43.9535,-176.5597,14.34,97,100,1.34,NZ,1685484164
63,banda aceh,5.5577,95.3222,27.16,75,100,6.69,ID,1685484188
64,las tablas,7.7667,-80.2833,26.76,99,99,2.91,PA,1685484424
65,jamestown,42.097,-79.2353,27.8,39,75,4.12,US,1685484177
66,sinjar,36.3209,41.8754,23.66,49,37,3.17,IQ,1685484172
67,uturoa,-16.7333,-151.4333,25.97,80,6,5.4,PF,1685484158
68,anadyr,64.75,177.4833,10.28,50,0,4.0,RU,1685484248
69,enewetak,11.3474,162.3373,26.66,79,100,2.67,MH,1685484214
70,la paz,-16.5,-68.15,13.99,12,0,2.57,BO,1685484426
71,kyshtovka,56.555,76.6271,11.7,60,99,2.19,RU,1685484426
72,chibougamau,49.9168,-74.3659,29.79,15,0,3.09,CA,1685484243
73,dire,12.2833,-10.9667,35.61,25,75,1.31,ML,1685484427
74,ola,59.5833,151.2833,12.86,55,100,8.13,RU,1685484427
75,lospalos,-8.5186,127.0025,21.56,86,82,4.04,TL,1685484250
76,fort bragg,35.139,-79.006,25.08,71,75,5.14,US,1685483917
77,udachny,66.4167,112.4,1.36,69,91,6.92,RU,1685484196
78,stornoway,58.2093,-6.3865,10.05,81,75,2.06,GB,1685484428
79,santa eularia des riu,38.9846,1.5341,19.38,87,0,0.51,ES,1685484428
80,makurazaki,31.2667,130.3167,22.71,96,71,0.18,JP,1685484429
81,champerico,14.3,-91.9167,26.3,64,11,5.2,GT,1685484429
82,nongstoin,25.5167,91.2667,18.4,84,21,1.31,IN,1685484429
83,east london,-33.0153,27.9116,17.19,83,100,2.55,ZA,1685484307
84,pont rouge,48.8833,-72.0825,24.76,38,80,2.18,CA,1685484430
85,newman,37.3138,-121.0208,28.19,49,89,0.89,US,1685484430
86,invercargill,-46.4,168.35,10.42,77,100,5.04,NZ,1685484221
87,bredasdorp,-34.5322,20.0403,14.38,90,89,4.29,ZA,1685484211
88,vernon,50.2581,-119.2691,28.75,18,11,1.54,CA,1685484003
89,labrador city,52.9463,-66.9114,25.95,24,40,9.26,CA,1685484337
90,porto novo,6.4965,2.6036,27.9,81,66,3.71,BJ,1685484190
91,saipan,15.1355,145.701,27.58,100,100,6.26,MP,1685484094
92,olonkinbyen,70.9221,-8.7187,-0.62,81,45,7.8,SJ,1685484172
93,tibati,6.4667,12.6333,20.49,94,65,0.35,CM,1685484256
94,whiteville,34.3388,-78.7031,28.07,50,40,2.57,US,1685484432
95,manaure,11.7751,-72.4445,30.49,66,98,3.25,CO,1685484433
96,salaqi,40.5414,110.5108,19.77,34,100,7.48,CN,1685484433
97,shalkar,47.8288,59.6258,24.95,26,89,4.59,KZ,1685484438
98,arraial do cabo,-22.9661,-42.0278,19.92,94,75,1.03,BR,1685484154
99,mannargudi,10.6667,79.4333,28.15,77,97,2.65,IN,1685484440
100,nago,26.5881,127.9761,26.92,90,100,6.67,JP,1685484441
101,stanley,54.868,-1.6985,10.85,84,75,2.06,GB,1685483996
102,colac,-38.3333,143.5833,12.32,80,100,5.49,AU,1685484441
103,vorgashor,67.5833,63.95,6.15,94,3,1.81,RU,1685484190
104,fale old settlement,-9.3852,-171.2468,28.48,74,42,4.51,TK,1685484268
105,nanpara,27.8667,81.5,30.71,38,0,2.82,IN,1685484442
106,riosucio,5.4216,-75.7032,19.25,93,100,0.86,CO,1685484442
107,college,64.8569,-147.8028,8.66,94,100,5.14,US,1685484177
108,hirara,24.8,125.2833,25.71,86,100,17.1,JP,1685484443
109,ust-nera,64.5667,143.2,14.33,57,100,1.55,RU,1685484204
110,torghay,49.6339,63.4981,22.92,31,59,2.24,KZ,1685484443
111,suva,-18.1416,178.4415,26.71,89,75,1.54,FJ,1685484444
112,weno,7.4515,151.8468,28.83,76,100,5.97,FM,1685484210
113,aripuana,-9.1667,-60.6333,26.9,67,100,0.65,BR,1685484449
114,dudinka,69.4058,86.1778,5.9,72,81,7.02,RU,1685484243
115,ilulissat,69.2167,-51.1,1.01,93,100,0.0,GL,1685484194
116,remire-montjoly,4.9167,-52.2667,27.02,74,0,3.09,GF,1685484308
117,polyarnyy,69.1989,33.4478,7.7,63,100,5.7,RU,1685484295
118,chuguyevka,44.1653,133.8633,12.62,59,5,0.43,RU,1685484450
119,vadso,70.0744,29.7487,6.49,93,40,3.09,NO,1685484278
120,ngerengere,-6.75,38.1167,20.19,87,80,1.5,TZ,1685484451
121,sumbe,-11.2061,13.8437,21.55,88,39,2.74,AO,1685484451
122,albany,42.6001,-73.9662,26.46,37,11,0.45,US,1685484050
123,arroyito,-31.4202,-63.05,14.5,61,100,3.51,AR,1685484452
124,nar'yan-mar,67.6713,53.087,9.41,79,100,2.26,RU,1685484306
125,mareeba,-17.0,145.4333,19.4,86,0,1.03,AU,1685484452
126,regeneracao,-6.2378,-42.6883,28.48,52,94,2.03,BR,1685484453
127,wanganui,-39.9333,175.05,13.11,78,39,1.79,NZ,1685484444
128,caleta de carquin,-11.0925,-77.6267,22.32,75,5,5.62,PE,1685484453
129,las palmas,28.4204,-14.0131,19.44,78,20,4.12,ES,1685484454
130,carnarvon,-24.8667,113.6333,19.83,77,0,2.74,AU,1685484168
131,jieshi,22.8134,115.8257,27.44,78,2,2.01,CN,1685484454
132,tarawa,1.419,172.984,30.05,74,20,2.06,KI,1685484397
133,afaahiti,-17.75,-149.2833,26.93,83,49,5.3,PF,1685484219
134,fizuli,39.5771,47.4084,25.53,51,17,2.74,AZ,1685484455
135,tiksi,71.6872,128.8694,-1.04,79,9,2.0,RU,1685484174
136,berezovyy,51.6667,135.7,10.24,57,51,1.86,RU,1685484225
137,flying fish cove,-10.4217,105.6791,25.82,88,75,4.12,CX,1685484252
138,vila franca do campo,37.7167,-25.4333,17.23,88,100,3.82,PT,1685484095
139,trincomalee,8.5711,81.2335,26.63,83,85,5.18,LK,1685484456
140,sola,-13.8833,167.55,26.87,72,79,9.54,VU,1685484456
141,gorontalo,0.5412,123.0595,24.02,92,36,1.04,ID,1685484457
142,slonim,53.0867,25.3219,9.11,78,5,2.73,BY,1685484457
143,happy valley-goose bay,53.3168,-60.3315,8.93,90,100,1.4,CA,1685484424
144,atafu village,-8.5421,-172.5159,28.58,71,57,4.23,TK,1685484165
145,halifax,44.6453,-63.5724,19.94,50,40,11.32,CA,1685484240
146,mount isa,-20.7333,139.5,5.87,65,89,1.03,AU,1685484075
147,katsuura,35.1333,140.3,16.49,92,100,9.24,JP,1685484459
148,nova sintra,14.8667,-24.7167,20.76,81,100,7.19,CV,1685484221
149,khorinsk,52.1657,109.7726,13.11,40,100,5.58,RU,1685484460
150,preveza,38.95,20.75,18.95,88,40,4.12,GR,1685484460
151,kayangel,8.0823,134.7173,28.66,74,86,2.31,PW,1685484270
152,bejaia,36.7559,5.0843,17.58,82,90,1.39,DZ,1685484461
153,hasaki,35.7333,140.8333,18.22,75,100,7.85,JP,1685484336
154,blackmans bay,-43.0167,147.3167,15.07,76,100,3.68,AU,1685484151
155,gidam,18.9833,81.4,25.71,68,98,0.88,IN,1685484461
156,barcelos,41.5388,-8.6151,19.36,97,93,1.03,PT,1685484462
157,boa vista,2.8197,-60.6733,29.99,62,40,2.06,BR,1685484223
158,lihue,21.9789,-159.3672,26.58,72,20,5.72,US,1685484121
159,manismata,-2.4667,111.0333,23.08,97,76,1.29,ID,1685484462
160,kapa'a,22.0752,-159.319,26.99,80,18,4.47,US,1685484162
161,san patricio,28.017,-97.5169,31.92,58,83,5.67,US,1685484266
162,arno,60.1167,18.6333,9.88,57,47,6.22,SE,1685484463
163,sungai penuh,-2.0833,101.3833,18.64,97,98,0.31,ID,1685484463
164,badger,64.8,-147.5333,8.62,92,100,4.63,US,1685484272
165,port alfred,-33.5906,26.891,13.43,93,100,0.89,ZA,1685484170
166,smithers,54.7804,-127.1743,14.02,30,93,3.82,CA,1685484469
167,sao paulo de olivenca,-3.3783,-68.8725,24.96,94,91,1.11,BR,1685484470
168,saint-philippe,-21.3585,55.7679,20.77,79,38,2.11,RE,1685484114
169,bataipora,-22.2953,-53.2711,16.78,99,100,1.8,BR,1685484470
170,plastun,44.7561,136.2939,12.75,58,17,2.88,RU,1685484375
171,ulsteinvik,62.3432,5.8487,12.21,88,76,6.26,NO,1685484470
172,aykhal,66.0,111.5,0.12,74,55,7.0,RU,1685484208
173,ponnani,10.767,75.9252,25.62,83,72,1.42,IN,1685484471
174,angaur state,6.906,134.13,28.57,75,89,2.06,PW,1685484471
175,tsiombe,-25.3,45.4833,19.96,80,2,4.1,MG,1685484255
176,rongelap,11.1635,166.8941,26.12,85,100,6.05,MH,1685484228
177,cockburn town,21.4612,-71.1419,27.52,81,99,5.88,TC,1685484369
178,vilyuchinsk,52.9306,158.4028,8.15,94,100,10.53,RU,1685484174
179,lisala,2.15,21.5167,21.73,96,81,0.53,CD,1685484472
180,sinabang,2.4803,96.3801,26.07,84,79,1.57,ID,1685484179
181,boyolangu,-8.1181,111.8935,24.28,89,100,2.13,ID,1685484473
182,nguigmi,14.2495,13.1092,29.4,49,17,3.82,NE,1685484473
183,ceerigaabo,10.6162,47.368,20.85,65,76,0.7,SO,1685484473
184,tra vinh,9.9347,106.3453,25.27,92,85,2.13,VN,1685484473
185,thompson,55.7435,-97.8558,20.09,60,75,5.66,CA,1685484159
186,walvis bay,-22.9575,14.5053,12.53,76,0,0.51,NA,1685484162
187,krasnyy chikoy,50.3643,108.7512,12.08,74,100,1.21,RU,1685484474
188,mundri,-6.9558,111.71,22.53,89,88,1.8,ID,1685484474
189,iskateley,67.6803,53.1512,9.39,79,100,2.27,RU,1685484174
190,roccella ionica,38.322,16.4009,18.63,81,43,1.41,IT,1685484475
191,south hedland,-20.4089,118.5983,12.96,50,0,3.09,AU,1685484165
192,aasiaat,68.7098,-52.8699,1.29,88,100,8.81,GL,1685484247
193,micheweni,-4.9667,39.8333,25.24,83,28,4.95,TZ,1685484345
194,iranshahr,27.2025,60.6848,31.1,31,72,3.98,IR,1685484476
195,amga,60.8953,131.9608,14.1,52,73,0.87,RU,1685484476
196,macusani,-14.0833,-70.4333,5.45,33,0,3.23,PE,1685484476
197,qujing,25.4833,103.7833,16.51,93,68,1.64,CN,1685484455
198,coquimbo,-29.9533,-71.3436,14.85,88,75,1.54,CL,1685484430
199,balikpapan,-1.2675,116.8289,26.55,94,40,2.57,ID,1685484477
200,kijang,35.2442,129.2139,17.27,79,97,4.37,KR,1685484478
201,puerto colombia,10.9878,-74.9547,28.05,82,100,3.98,CO,1685484478
202,xanxere,-26.8769,-52.4042,17.06,94,100,1.41,BR,1685484225
203,sao felix do xingu,-6.6447,-51.995,25.61,75,81,1.43,BR,1685484478
204,tahoua,14.8888,5.2692,30.13,43,92,6.28,NE,1685484479
205,posto fiscal rolim de moura,-13.0833,-62.2667,25.78,72,90,1.37,BR,1685484435
206,issenye,-2.0,34.3333,18.85,76,81,1.85,TZ,1685484479
207,eyl,7.9803,49.8164,28.24,81,21,8.0,SO,1685484192
208,keflavik,64.0049,-22.5624,7.24,81,100,6.17,IS,1685484160
209,torres,-29.3353,-49.7269,17.13,83,100,4.0,BR,1685484280
210,tokmok,42.8417,75.3016,14.78,34,22,2.35,KG,1685484480
211,anchorage,61.2181,-149.9003,11.07,68,100,5.66,US,1685484312
212,cuencame de ceniceros,24.8711,-103.6964,30.04,15,0,3.13,MX,1685484481
213,timmins,48.4669,-81.3331,29.72,23,8,3.6,CA,1685484481
214,kyelang,32.5833,77.0333,-2.0,87,93,1.97,IN,1685484481
215,barra de santo antonio,-9.4047,-35.5072,25.6,83,14,4.07,BR,1685484180
216,waingapu,-9.6567,120.2641,23.73,88,100,4.3,ID,1685484482
217,port lincoln,-34.7333,135.8667,16.29,72,100,6.28,AU,1685484271
218,sumberpucung,-8.1586,112.4829,20.68,95,62,1.1,ID,1685484482
219,hithadhoo,-0.6,73.0833,28.54,75,99,6.04,MV,1685484038
220,sandnessjoen,66.0217,12.6316,8.29,94,75,5.14,NO,1685484338
221,puerto aysen,-45.4,-72.7,12.02,94,100,3.6,CL,1685484246
222,whitehorse,60.7161,-135.0538,11.12,42,75,5.66,CA,1685484251
223,kailua-kona,19.6406,-155.9956,28.49,80,91,2.24,US,1685484198
224,khanpur,28.6453,70.6567,27.56,46,53,1.49,PK,1685484364
225,haiku-pauwela,20.9219,-156.3051,25.58,75,93,6.76,US,1685484171
226,klyuchi,52.2667,79.1667,13.2,48,2,2.24,RU,1685484167
227,ribeira grande,38.5167,-28.7,18.21,83,6,4.47,PT,1685484159
228,wotho,10.1657,166.0102,27.03,78,97,3.64,MH,1685484485
229,la passe,45.5549,-0.8967,21.13,74,99,6.64,FR,1685484197
230,segre,47.6833,-0.8667,18.08,72,67,6.11,FR,1685484485
231,ontario,34.0633,-117.6509,24.25,68,75,7.2,US,1685484402
232,mitsamiouli,-11.3847,43.2844,26.69,75,22,1.6,KM,1685484160
233,hengchun,22.0042,120.7439,27.79,80,34,1.63,TW,1685484486
234,papao,-17.75,-149.55,27.59,86,64,5.14,PF,1685484277
235,souillac,-20.5167,57.5167,24.21,73,40,3.6,MU,1685484275
236,inirida,3.8653,-67.9239,23.52,98,100,0.72,CO,1685484487
237,ebaye,8.7748,167.7392,25.01,88,0,2.57,MH,1685484487
238,pukhrayan,26.2333,79.85,32.15,34,0,3.01,IN,1685484488
239,cidreira,-30.1811,-50.2056,19.54,78,100,7.33,BR,1685484340
240,hatillo,18.4863,-66.8254,29.5,71,99,1.34,PR,1685484488
241,ulubey,40.8721,37.7588,14.07,91,64,2.58,TR,1685484489
242,ciudad lazaro cardenas,17.9583,-102.2,31.26,58,0,6.08,MX,1685484386
243,new norfolk,-42.7826,147.0587,15.72,74,100,3.73,AU,1685484243
244,guayaramerin,-10.8368,-65.3614,26.09,72,84,1.35,BO,1685484489
245,mancio lima,-7.6142,-72.8958,24.96,96,43,1.38,BR,1685484490
246,masina,-4.3836,15.3914,24.79,78,60,0.52,CD,1685484490
247,petropavlovsk-kamchatsky,53.0452,158.6483,7.33,81,100,7.0,RU,1685484232
248,pisco,-13.7,-76.2167,22.03,68,20,5.66,PE,1685484267
249,alice springs,-23.7,133.8833,2.75,87,1,1.64,AU,1685484113
250,vallenar,-28.5708,-70.7581,20.67,37,100,1.31,CL,1685484491
251,bonthe,7.5264,-12.505,27.02,84,98,2.78,SL,1685484491
252,salmon arm,50.6998,-119.3024,28.57,31,24,2.06,CA,1685484393
253,greymouth,-42.4667,171.2,9.72,87,98,1.94,NZ,1685484456
254,al hudaydah,14.7978,42.9545,31.67,48,94,3.24,YE,1685484492
255,avarua,-21.2078,-159.775,25.03,50,75,6.17,CK,1685484196
256,kristiansund,63.1115,7.732,10.03,93,100,12.35,NO,1685484490
257,georgetown,5.4112,100.3354,27.97,80,20,1.54,MY,1685484190
258,barreirinhas,-2.7469,-42.8264,25.62,86,66,2.89,BR,1685484493
259,mokhsogollokh,61.4681,128.9203,13.44,52,3,2.35,RU,1685484493
260,port macquarie,-31.4333,152.9167,9.38,59,3,1.98,AU,1685484236
261,santa terezinha,-29.9002,-50.0904,19.06,80,100,6.63,BR,1685484493
262,hamilton,39.1834,-84.5333,29.35,50,40,5.66,US,1685484229
263,darzab,35.9774,65.3783,17.28,19,0,1.69,AF,1685484494
264,as sulayyil,20.4607,45.5779,29.32,39,43,7.24,SA,1685484494
265,argo,37.6333,22.7333,19.32,80,10,0.61,GR,1685484371
266,tari,12.4086,4.4914,29.4,51,100,4.49,NG,1685484494
267,astrakhan,46.3497,48.0408,20.93,94,0,3.13,RU,1685484495
268,cooper's town,26.8667,-77.5167,25.98,79,100,6.03,BS,1685484495
269,at taj,24.2049,23.2857,29.78,14,52,5.35,LY,1685484213
270,ta`u,-14.2336,-169.5144,27.63,80,90,9.47,AS,1685484295
271,asau,46.4333,26.4,15.51,71,58,1.61,RO,1685484496
272,kalkaman,51.9525,76.0211,15.47,56,65,2.19,KZ,1685484496
273,havre,49.5833,0.3333,12.33,82,100,8.75,FR,1685484496
274,palikir - national government center,6.9248,158.1611,29.41,79,100,2.06,FM,1685484497
275,lepsy,46.235,78.9456,15.49,40,5,4.81,KZ,1685484497
276,takoradi,4.8845,-1.7554,27.07,81,45,3.13,GH,1685484163
277,el obeid,13.1842,30.2167,28.89,39,88,2.78,SD,1685484497
278,nantucket,41.2835,-70.0995,14.08,80,0,4.63,US,1685484498
279,kandi,11.1342,2.9386,29.94,56,97,2.41,BJ,1685484498
280,gisborne,-38.6533,178.0042,14.65,70,1,3.17,NZ,1685484498
281,luganville,-15.5333,167.1667,26.45,69,100,4.5,VU,1685484499
282,katsuren-haebaru,26.3369,127.8719,28.01,94,100,7.8,JP,1685484499
283,bardai,11.65,7.2333,29.87,46,82,6.3,NG,1685484294
284,benguela,-12.5763,13.4055,21.04,85,90,2.01,AO,1685484452
285,hawaiian paradise park,19.5933,-154.9731,26.13,82,100,2.57,US,1685484173
286,malanje,-9.5402,16.341,19.0,56,9,1.3,AO,1685484500
287,jwaneng,-24.6004,24.7303,11.98,59,3,4.01,BW,1685484500
288,masuguru,-11.3667,38.4167,20.74,82,99,1.22,TZ,1685484319
289,chimbote,-9.0853,-78.5783,23.21,75,19,4.2,PE,1685484386
290,palu,-0.8917,119.8707,24.0,94,61,1.25,ID,1685484506
291,masterton,-40.9597,175.6575,14.38,69,86,0.86,NZ,1685484506
292,saint-pierre,-21.3393,55.4781,20.82,68,0,3.6,RE,1685484172
293,guerrero negro,27.9769,-114.0611,19.58,55,1,8.44,MX,1685484251
294,kruisfontein,-34.0033,24.7314,13.27,88,100,2.07,ZA,1685484481
295,akureyri,65.6835,-18.0878,8.96,61,20,3.09,IS,1685484258
296,shetpe,44.1667,52.1167,28.19,13,86,10.56,KZ,1685484507
297,hilo,19.7297,-155.09,27.93,80,100,2.57,US,1685484014
298,prado,-17.3411,-39.2208,22.33,85,9,4.71,BR,1685484408
299,tolanaro,-25.0319,46.9987,21.04,88,40,2.06,MG,1685484299
300,padang,-0.9492,100.3543,24.94,90,100,1.6,ID,1685484508
301,saudarkrokur,65.7461,-19.6394,8.99,69,44,5.17,IS,1685484136
302,sirsa,29.5333,75.0167,22.93,71,98,1.26,IN,1685484509
303,fortuna,40.5982,-124.1573,15.52,81,100,5.66,US,1685484210
304,freetown,8.484,-13.2299,27.15,85,100,3.74,SL,1685484485
305,tommot,58.9564,126.2925,11.06,78,93,0.74,RU,1685484510
306,bidur,4.1167,101.2833,23.7,92,100,1.02,MY,1685484510
307,doksy,50.5647,14.6555,11.48,71,0,1.76,CZ,1685484510
308,borujen,31.9652,51.2873,17.81,38,64,1.55,IR,1685484510
309,qarauyl,48.9451,79.255,10.15,59,14,2.07,KZ,1685484512
310,skovorodino,53.9833,123.9167,7.97,89,86,2.14,RU,1685484512
311,ondangwa,-17.9167,15.95,19.39,30,9,4.09,NA,1685484512
312,barclayville,4.6797,-8.2339,25.42,91,79,2.05,LR,1685484512
313,okhotsk,59.3833,143.3,9.38,66,99,0.67,RU,1685484369
314,st. john's,47.5649,-52.7093,9.88,76,75,4.12,CA,1685483939
315,deogarh,21.5333,84.7333,26.52,74,78,0.81,IN,1685484513
316,minas de marcona,-15.2119,-75.1103,15.91,75,16,5.51,PE,1685484258
317,northam,51.0333,-4.2167,13.55,78,0,6.36,GB,1685484431
318,yuzhno-kurilsk,44.0306,145.8556,9.61,72,9,3.09,RU,1685484237
319,kavaratti,10.5669,72.642,29.46,74,80,1.41,IN,1685484514
320,san antonio de pale,-1.4014,5.6325,26.26,79,82,4.55,GQ,1685484185
321,san jose del cabo,23.0589,-109.6977,32.0,50,0,7.2,MX,1685484453
322,dhidhdhoo,6.8833,73.1,28.93,74,77,3.76,MV,1685484515
323,nijar,36.9665,-2.206,18.7,83,75,1.54,ES,1685484515
324,peterhead,57.5058,-1.7981,11.36,89,21,2.83,GB,1685484516
325,nova vicosa,-17.8919,-39.3719,23.94,74,3,6.25,BR,1685484263
326,lively,46.4334,-81.1498,28.34,28,1,3.66,CA,1685484516
327,potchefstroom,-26.7167,27.1,13.17,82,81,3.57,ZA,1685484516
328,malango,-2.9627,119.9001,18.68,96,94,0.91,ID,1685484171
329,taksimo,56.3444,114.8794,8.04,61,5,0.78,RU,1685484498
330,nemuro,43.3236,145.575,8.94,83,1,4.34,JP,1685484152
331,messaad,34.1543,3.5031,19.26,49,100,7.29,DZ,1685484517
332,mar del plata,-38.0023,-57.5575,14.49,75,0,3.6,AR,1685484315
333,kenai,60.5544,-151.2583,11.68,80,68,5.22,US,1685484235
334,kargasok,59.0556,80.8572,12.35,53,7,2.39,RU,1685484501
335,susuman,62.7833,148.1667,12.79,30,17,0.24,RU,1685484169
336,lompoc,34.6391,-120.4579,19.32,74,100,4.92,US,1685484304
337,ancud,-41.8697,-73.8203,11.1,92,100,7.0,CL,1685484191
338,tazovsky,67.4667,78.7,10.93,76,99,5.11,RU,1685484092
339,ugoofaaru,5.6667,73.0,28.68,77,53,4.14,MV,1685484519
340,syanno,54.8106,29.7069,6.86,88,45,1.98,BY,1685484520
341,moab,38.5733,-109.5498,30.03,8,91,7.24,US,1685484520
342,saldanha,-33.0117,17.9442,13.03,86,100,8.24,ZA,1685484244
343,christies beach,-35.1396,138.4698,15.96,80,93,5.36,AU,1685484520
344,al qusayr,34.5091,36.5798,17.0,84,0,1.05,SY,1685484521
345,kingston,17.997,-76.7936,26.53,90,40,1.03,JM,1685484103
346,bela vista,-22.1089,-56.5211,18.83,97,100,0.88,BR,1685484521
347,urengoy,65.9667,78.3667,13.01,74,82,5.97,RU,1685484521
348,tofol,5.3248,163.0078,30.88,70,75,1.54,FM,1685484480
349,kiruna,67.8557,20.2251,5.51,81,100,7.72,SE,1685484522
350,campo formoso,-10.5075,-40.3214,23.09,67,73,4.91,BR,1685484275
351,gamba,-2.65,10.0,23.86,92,61,2.5,GA,1685484176
352,kone,-21.0595,164.8658,21.7,70,100,2.4,NC,1685484523
353,taulaga,-11.0553,-171.0883,28.52,76,94,5.41,AS,1685484322
354,roma,43.2128,-75.4557,29.08,32,0,1.54,US,1685484523
355,isla del bosque,22.7333,-105.85,29.15,58,0,5.92,MX,1685484524
356,korets,50.6165,27.1605,13.48,74,79,3.22,UA,1685484524
357,jayapura,-2.5333,140.7,27.66,89,80,1.6,ID,1685484524
358,preobrazheniye,42.9019,133.9064,14.16,61,0,2.21,RU,1685484524
359,kinablangan,7.6947,126.5503,26.69,78,100,2.86,PH,1685484525
360,mosjoen,65.836,13.1908,8.29,81,40,2.24,NO,1685484525
361,mawu,29.5923,107.3139,22.25,94,9,1.78,CN,1685484525
362,inhambane,-23.865,35.3833,20.79,77,32,2.8,MZ,1685484173
363,la ronge,55.1001,-105.2842,25.14,22,75,1.54,CA,1685484298
364,lata,40.1629,-8.3327,16.62,98,82,0.96,PT,1685484371
365,shahrud,36.4182,54.9763,24.92,32,91,1.51,IR,1685484526
366,laguna,38.421,-121.4238,26.29,47,0,6.17,US,1685484166
367,codrington,-38.2667,141.9667,14.1,86,100,7.36,AU,1685484225
368,murray bridge,-35.1167,139.2667,18.4,73,99,3.3,AU,1685484527
369,murzuq,25.9155,13.9184,29.15,13,14,3.88,LY,1685484296
370,kalianget,-7.05,113.9333,26.21,82,83,5.08,ID,1685484493
371,taltal,-25.4,-70.4833,17.94,76,33,2.35,CL,1685484440
372,saint-joseph,-21.3667,55.6167,20.21,77,18,1.96,RE,1685484242
373,itoman,26.1247,127.6694,28.01,83,75,8.23,JP,1685484324
374,bechar,31.6167,-2.2167,23.18,23,40,5.14,DZ,1685484213
375,azemmour,33.2895,-8.3425,19.11,78,23,3.3,MA,1685484529
376,montalbano jonico,40.2879,16.5788,16.59,90,73,1.3,IT,1685484529
377,punta del este,-34.9667,-54.95,14.37,80,0,2.57,UY,1685484529
378,miacatlan,18.7667,-99.3667,34.68,31,20,3.6,MX,1685484529
379,meizhou,24.2977,116.1072,26.12,89,92,0.59,CN,1685484163
380,joao pinheiro,-17.7425,-46.1725,22.77,50,99,4.28,BR,1685484231
381,guajara mirim,-10.7828,-65.3394,26.17,72,84,1.3,BR,1685484530
382,ashkelon,31.6693,34.5715,22.12,69,0,2.24,IL,1685484530
383,gillette,44.2911,-105.5022,24.5,43,0,4.12,US,1685484531
384,vinh long,10.25,105.9667,24.99,92,86,2.24,VN,1685484531
385,sisimiut,66.9395,-53.6735,4.33,62,100,8.99,GL,1685484531
386,mount pleasant,32.7941,-79.8626,26.12,72,0,5.14,US,1685484531
387,beaufort west,-32.3567,22.583,10.69,62,83,2.38,ZA,1685484532
388,luderitz,-26.6481,15.1594,13.19,88,0,4.62,NA,1685484249
389,endicott,42.0984,-76.0494,28.31,36,0,3.09,US,1685484532
390,gaspe,48.8334,-64.4819,21.88,47,78,2.88,CA,1685484494
391,douvres-la-delivrande,49.2947,-0.3804,12.42,87,100,7.2,FR,1685484533
392,akhtubinsk,48.2795,46.1722,19.38,79,0,4.57,RU,1685484533
393,masasi,-10.7167,38.8,18.26,93,96,1.01,TZ,1685484533
394,shimanovsk,52.0,127.7,11.61,77,83,1.45,RU,1685484534
395,izluchinsk,60.9794,76.9242,14.01,75,75,3.78,RU,1685484534
396,hosdurga,13.7981,76.2861,25.43,63,85,2.29,IN,1685484534
397,bereeda,11.8704,51.0579,30.42,68,1,1.53,SO,1685484534
398,quesnel,52.9999,-122.5029,18.28,34,20,2.06,CA,1685484535
399,barah,13.7,30.3667,28.79,42,9,2.01,SD,1685484535
400,agat village,13.3886,144.6585,25.53,94,100,6.17,GU,1685484535
401,boca chica,18.4537,-69.6111,29.64,79,40,2.57,DO,1685484535
402,cannonvale,-20.2833,148.7,17.66,87,98,6.86,AU,1685484409
403,umm kaddadah,13.6017,26.6876,32.16,32,37,2.03,SD,1685484310
404,egilsstadir,65.2653,-14.3948,7.95,71,40,5.14,IS,1685484323
405,kolonia,50.9333,6.95,15.53,73,0,4.63,DE,1685484288
406,bikenibeu village,1.3673,173.1241,29.98,74,20,2.06,KI,1685484402
407,la romana,18.4273,-68.9728,30.2,74,75,4.12,DO,1685484366
408,mejit,10.2753,170.8646,27.63,81,79,8.19,MH,1685484533
409,edmundston,47.3737,-68.3251,28.13,17,0,4.12,CA,1685484359
410,belyy yar,53.6039,91.3903,8.94,100,20,1.0,RU,1685484276
411,flin flon,54.7682,-101.865,27.52,24,2,0.89,CA,1685484538
412,cuenca,-2.8833,-78.9833,18.0,69,61,2.79,EC,1685484538
413,bondo,3.8146,23.6866,20.42,93,39,0.4,CD,1685484538
414,kill devil hills,36.0307,-75.676,22.0,87,75,3.6,US,1685484388
415,rawlins,41.7911,-107.2387,21.94,17,20,16.98,US,1685484344
416,cruzeiro do sul,-29.5128,-51.9853,18.07,88,43,0.41,BR,1685484539
417,myskhako,44.6714,37.7433,14.9,95,32,2.09,RU,1685484539
418,maile,-38.9466,-72.3727,8.34,94,100,3.02,CL,1685484539
419,starkville,33.4504,-88.8184,28.93,48,75,4.12,US,1685484266
420,tuxpan,19.55,-103.4,34.75,28,4,4.53,MX,1685484299
421,dainava (kaunas),54.9152,23.9683,10.0,66,5,2.06,LT,1685484545
422,safford,32.834,-109.7076,34.3,13,0,7.2,US,1685484545
423,port-vila,-17.7338,168.3219,25.78,73,75,5.66,VU,1685484546
424,shingu,33.7333,135.9833,19.35,88,100,1.65,JP,1685484277
425,alofi,-19.0595,-169.9187,26.94,69,40,4.12,NU,1685484546
426,sittwe,20.15,92.9,28.63,83,98,3.89,MM,1685484546
427,praia da vitoria,38.7333,-27.0667,17.42,83,97,4.26,PT,1685484468
428,luena,-11.7833,19.9167,15.51,55,3,0.74,AO,1685484547
429,north battleford,52.7834,-108.2847,19.05,68,75,9.77,CA,1685484547
430,pariaman,-0.619,100.12,24.35,94,100,1.97,ID,1685483897
431,kalmunai,7.4167,81.8167,26.3,82,96,2.11,LK,1685484308
432,linghai,41.1653,121.3667,19.48,42,86,2.18,CN,1685484548
433,belmonte,-15.8631,-38.8828,23.3,86,20,4.39,BR,1685484278
434,howard springs,-12.497,131.047,18.95,80,50,3.02,AU,1685484500
435,sol'-iletsk,51.1631,54.9918,23.02,29,100,5.34,RU,1685484549
436,sabana de torres,7.3915,-73.4957,30.34,83,100,1.11,CO,1685484549
437,trujillo,-8.116,-79.03,23.98,78,49,3.6,PE,1685484549
438,amahai,-3.3333,128.9167,28.89,89,90,3.51,ID,1685484499
439,margate,51.3813,1.3862,12.17,82,100,4.47,GB,1685484236
440,cidade velha,14.9167,-23.6167,25.26,61,0,8.75,CV,1685484550
441,n'zeto,-7.2312,12.8666,22.93,89,35,3.83,AO,1685484550
442,namsos,64.4662,11.4957,8.95,87,100,7.72,NO,1685484551
443,crane,31.3974,-102.3501,34.09,23,3,6.69,US,1685484168
444,palmer,42.1584,-72.3287,24.94,35,20,4.12,US,1685484081
445,szczebrzeszyn,50.695,22.9795,10.13,76,0,2.84,PL,1685484551
446,maumere,-8.6199,122.2111,24.86,85,83,3.23,ID,1685484552
447,tralee,52.2704,-9.7026,12.83,85,2,0.85,IE,1685484173
448,ed damer,17.5928,33.9592,31.02,39,9,5.21,SD,1685484552
449,tazacorte,28.629,-17.9293,21.54,68,40,1.79,ES,1685484334
450,north bend,43.4065,-124.2243,19.58,59,39,7.88,US,1685484177
451,batticaloa,7.7102,81.6924,27.15,79,100,1.75,LK,1685484379
452,dubreka,9.7911,-13.5233,27.98,88,72,0.7,GN,1685484553
453,loreto,22.2667,-101.9667,27.74,17,2,2.15,MX,1685484553
454,lower sackville,44.7733,-63.6885,16.57,49,74,3.25,CA,1685484554
455,axim,4.8699,-2.2405,26.37,85,44,3.11,GH,1685484498
456,markovo,57.3206,107.0881,8.43,62,63,1.58,RU,1685484153
457,sirte,31.2089,16.5887,20.55,84,31,5.46,LY,1685484554
458,canutama,-6.5339,-64.3831,27.25,76,100,1.43,BR,1685484554
459,hotan,37.0997,79.9269,19.17,23,77,3.32,CN,1685484297
460,fort irwin,35.2627,-116.6848,27.9,15,0,7.72,US,1685484555
461,hibbing,47.4272,-92.9377,26.68,53,20,4.63,US,1685484555
462,morondava,-20.2833,44.2833,22.48,54,0,3.55,MG,1685484556
463,laojunmiao,39.8333,97.7333,8.55,30,93,1.46,CN,1685484556
464,cole harbour,44.6724,-63.4751,19.66,48,40,11.32,CA,1685484192
465,mossendjo,-2.9506,12.7261,21.86,96,96,1.83,CG,1685484445
466,clinton,42.587,-82.9199,32.29,44,20,5.66,US,1685484531
467,farafangana,-22.8167,47.8333,20.34,79,6,0.87,MG,1685484557
468,ofunato,39.0717,141.7167,14.73,66,59,0.91,JP,1685484557
469,zhezqazghan,47.7833,67.7667,21.43,32,3,3.86,KZ,1685484557
470,ivins,37.1686,-113.6794,32.31,14,100,0.45,US,1685484558
471,alibag,18.6411,72.8792,30.04,80,1,2.73,IN,1685484520
472,zeya,53.75,127.2667,10.3,75,100,1.23,RU,1685484558
473,auki,-8.7676,160.7034,25.23,87,100,2.96,SB,1685484558
474,namtsy,62.7161,129.6658,13.56,57,16,1.37,RU,1685484559
475,kavieng,-2.5744,150.7967,28.48,77,20,3.62,PG,1685484238
476,al bayda',32.7627,21.7551,20.03,53,99,11.3,LY,1685484560
477,cill airne,52.05,-9.5167,12.45,90,3,1.36,IE,1685484560
478,tateyama,34.9833,139.8667,16.43,89,100,7.78,JP,1685484560
479,le puy-en-velay,45.0437,3.8852,12.31,97,74,0.71,FR,1685484561
480,san andres,12.5847,-81.7006,30.01,74,20,3.09,CO,1685484372
481,sangsong-ni,39.1694,126.8856,14.28,82,96,1.3,KP,1685484561
482,manokwari,-0.8667,134.0833,26.94,75,33,0.74,ID,1685484218
483,kerikeri,-35.2268,173.9474,17.17,96,80,0.89,NZ,1685484523
484,noumea,-22.2763,166.4572,22.22,99,100,5.97,NC,1685484274
485,changli,39.7042,119.1506,19.07,43,57,0.24,CN,1685484562
486,pandan,14.0453,124.1694,28.53,78,100,7.22,PH,1685484562
487,borovskoy,53.8,64.15,21.05,59,99,4.41,KZ,1685484206
488,revda,56.801,59.9303,16.71,52,100,2.01,RU,1685484563
489,aioun,16.6614,-9.6149,37.2,15,97,5.64,MR,1685484306
490,beyneu,45.3167,55.2,24.66,26,87,7.23,KZ,1685484563
491,ouallam,14.3188,2.0866,36.47,29,100,1.54,NE,1685484563
492,bouznika,33.7894,-7.1597,19.71,80,0,1.73,MA,1685484564
493,carrigaline,51.8117,-8.3986,14.86,72,40,1.03,IE,1685484564
494,reggane,26.7158,0.1714,29.35,18,13,5.09,DZ,1685484564
495,dolores,-36.3132,-57.6792,10.68,82,36,3.18,AR,1685484220
496,rio grande,-32.035,-52.0986,16.06,87,17,3.33,BR,1685484238
497,luanda,-8.8368,13.2343,21.95,85,27,4.1,AO,1685484570
498,santona,43.4439,-3.4576,18.51,90,8,0.94,ES,1685484576
499,tobelo,1.7284,128.0095,26.97,82,51,1.64,ID,1685484576
500,hadibu,12.65,54.0333,29.41,79,13,2.15,YE,1685484244
501,maloye ganyushkino,46.6,49.2667,22.65,69,68,3.01,KZ,1685484576
502,westport,41.1415,-73.3579,22.4,62,0,4.12,US,1685484252
503,pechora,65.1472,57.2244,11.61,74,51,2.86,RU,1685484577
504,brookings,44.3114,-96.7984,31.19,42,0,4.63,US,1685484297
505,harran,36.86,39.0314,23.15,42,5,3.13,TR,1685484577
506,sona,45.4388,10.8255,18.77,69,93,2.44,IT,1685484578
507,yura,-16.2522,-71.6797,15.65,40,4,2.08,PE,1685484578
508,civitavecchia,42.0933,11.7967,17.47,78,52,2.13,IT,1685484578
509,amalapuram,16.5833,82.0167,26.16,81,100,2.35,IN,1685484583
510,winnemucca,40.973,-117.7357,26.03,25,100,3.09,US,1685484584
511,tvoroyri,61.5556,-6.8111,9.59,92,89,9.11,FO,1685484167
512,buedu,8.2803,-10.3719,23.17,99,91,1.64,SL,1685484584
513,howrah,22.5892,88.3103,30.0,89,20,2.06,IN,1685484584
514,lorengau,-2.0226,147.2712,28.46,74,40,2.37,PG,1685484178
515,port blair,11.6667,92.75,28.08,79,100,3.94,IN,1685484585
516,mogadishu,2.0371,45.3438,26.86,82,52,7.52,SO,1685484406
517,hiratacho,35.4333,132.8167,17.98,88,75,5.66,JP,1685484585
518,melfort,52.8667,-104.6177,26.12,28,2,2.89,CA,1685484586
519,salym,60.0625,71.4789,10.77,80,5,2.15,RU,1685484586
520,zemio,5.0314,25.1361,20.49,88,55,1.06,CF,1685484586
521,kolonia town,6.964,158.206,30.0,79,100,2.06,FM,1685484587
522,rikaze,29.25,88.8833,10.58,47,0,1.83,CN,1685484229
523,lander,42.833,-108.7307,22.84,32,75,10.29,US,1685484299
524,salinopolis,-0.6136,-47.3561,26.12,87,92,4.71,BR,1685484320
525,yaren,-0.5472,166.916,28.04,72,99,0.21,NR,1685484170
526,arenapolis,-14.4503,-56.8461,22.49,83,83,2.3,BR,1685484588
527,kavalerovo,44.2661,135.0572,12.5,62,1,1.65,RU,1685484588
528,ashoknagar,24.5667,77.7167,28.89,37,0,2.7,IN,1685484588
529,sur,22.5667,59.5289,32.04,52,0,6.28,OM,1685484449
530,tumut,-35.3,148.2167,11.58,89,100,0.47,AU,1685484589
531,alaghsas,17.0187,8.0168,33.81,9,3,5.02,NE,1685484476
532,richards bay,-28.783,32.0377,21.37,79,4,6.38,ZA,1685484589
533,huarmey,-10.0681,-78.1522,23.45,74,7,4.44,PE,1685484590
534,puerto leguizamo,-0.1934,-74.7819,26.21,93,81,0.5,CO,1685484590
535,ubari,26.5921,12.7805,28.17,17,0,2.54,LY,1685484523
536,vestby,59.6024,10.7467,13.61,88,42,1.34,NO,1685484590
537,nuuk,64.1835,-51.7216,9.34,53,75,6.71,GL,1685484394
538,siwa oasis,29.2041,25.5195,28.86,24,76,5.44,EG,1685484591
539,labuan bajo,-8.4964,119.8877,23.59,89,84,2.39,ID,1685484591
540,thames,-37.1333,175.5333,13.93,92,75,2.07,NZ,1685484231
541,bulgan,48.8125,103.5347,8.59,92,100,4.43,MN,1685484592
542,jijiang,29.2906,106.2542,24.18,95,3,1.95,CN,1685484597
543,omoku,5.3435,6.6532,24.32,96,79,1.78,NG,1685484597
544,ayorou,14.7308,0.9174,37.33,26,67,1.9,NE,1685484532
545,kurumkan,54.3,110.3,11.72,43,97,2.78,RU,1685484370
546,prata,-19.3072,-48.9242,23.05,57,99,3.73,BR,1685484598
547,beledweyne,4.7358,45.2036,27.25,67,79,7.81,SO,1685484598
548,aswan,24.0934,32.907,28.87,19,0,4.11,EG,1685484451
549,hobyo,5.3505,48.5268,28.06,80,82,11.07,SO,1685484470
550,jining,35.405,116.5814,18.14,83,69,2.25,CN,1685484535
551,tabou,4.423,-7.3528,26.2,86,80,2.46,CI,1685484599
552,estes park,40.3772,-105.5217,23.02,24,99,3.13,US,1685484317
553,kobuleti,41.82,41.7753,19.0,92,31,2.46,GE,1685484600
554,sarmiento,-45.5882,-69.07,12.13,66,10,5.91,AR,1685484600
555,mugia,43.1041,-9.2179,16.2,95,93,1.57,ES,1685484504
556,quchan,37.106,58.5095,18.75,21,7,1.83,IR,1685484601
557,dolinsk,47.35,142.8,11.01,59,22,2.93,RU,1685484602
558,balkanabat,39.5108,54.3671,32.22,8,87,7.56,TM,1685484535
559,istok,42.7808,20.4875,14.15,87,99,2.16,XK,1685484603
560,fallon,39.4735,-118.7774,26.93,27,40,3.6,US,1685484603
561,dalbandin,28.8947,64.4101,27.76,8,1,2.37,PK,1685484604
562,bageshwar,29.85,79.7667,16.61,83,13,1.14,IN,1685484604
